;0;1;5
228;2022-04-08 ; 03:12:35 ;" ""Пришла координата: $GPRMC,001233.000,A,5952.69800,N,03020.78604,E,0.0,0.0,080422,,,A*61"""
280;2022-04-08 ; 03:13:00 ;" ""Пришла координата: $GPRMC,001258.000,A,5952.69415,N,03020.78044,E,0.1,0.0,080422,,,A*67"""
374;2022-04-08 ; 03:13:23 ;" ""Пришла координата: $GPRMC,001323.000,A,5952.69703,N,03020.78165,E,0.0,0.0,080422,,,A*6D"""
458;2022-04-08 ; 03:13:48 ;" ""Пришла координата: $GPRMC,001348.000,A,5952.69681,N,03020.78110,E,0.0,0.0,080422,,,A*69"""
540;2022-04-08 ; 03:14:13 ;" ""Пришла координата: $GPRMC,001413.000,A,5952.69720,N,03020.78083,E,0.1,0.0,080422,,,A*60"""
618;2022-04-08 ; 03:14:38 ;" ""Пришла координата: $GPRMC,001438.000,A,5952.69736,N,03020.78096,E,0.0,0.0,080422,,,A*6B"""
708;2022-04-08 ; 03:15:03 ;" ""Пришла координата: $GPRMC,001503.000,A,5952.69736,N,03020.78096,E,0.0,0.0,080422,,,A*62"""
785;2022-04-08 ; 03:15:28 ;" ""Пришла координата: $GPRMC,001528.000,A,5952.69751,N,03020.78089,E,0.0,0.0,080422,,,A*64"""
881;2022-04-08 ; 03:15:53 ;" ""Пришла координата: $GPRMC,001553.000,A,5952.69767,N,03020.78093,E,0.0,0.0,080422,,,A*66"""
959;2022-04-08 ; 03:16:18 ;" ""Пришла координата: $GPRMC,001618.000,A,5952.69767,N,03020.78093,E,0.0,0.0,080422,,,A*6A"""
1045;2022-04-08 ; 03:16:43 ;" ""Пришла координата: $GPRMC,001643.000,A,5952.69776,N,03020.78133,E,0.1,0.0,080422,,,A*6E"""
1128;2022-04-08 ; 03:17:08 ;" ""Пришла координата: $GPRMC,001708.000,A,5952.69776,N,03020.78133,E,0.0,0.0,080422,,,A*61"""
1223;2022-04-08 ; 03:17:31 ;" ""Пришла координата: $GPRMC,001731.000,A,5952.69785,N,03020.78116,E,0.1,0.0,080422,,,A*61"""
1315;2022-04-08 ; 03:17:53 ;" ""Пришла координата: $GPRMC,001753.000,A,5952.69409,N,03020.77486,E,0.4,24.7,080422,,,A*55"""
1388;2022-04-08 ; 03:18:18 ;" ""Пришла координата: $GPRMC,001818.000,A,5952.68890,N,03020.77528,E,4.4,174.5,080422,,,A*6F"""
1479;2022-04-08 ; 03:18:43 ;" ""Пришла координата: $GPRMC,001843.000,A,5952.68022,N,03020.77896,E,0.1,0.0,080422,,,A*6E"""
1558;2022-04-08 ; 03:19:08 ;" ""Пришла координата: $GPRMC,001908.000,A,5952.67985,N,03020.77913,E,0.1,0.0,080422,,,A*67"""
1641;2022-04-08 ; 03:19:33 ;" ""Пришла координата: $GPRMC,001933.000,A,5952.67985,N,03020.77913,E,0.0,0.0,080422,,,A*6E"""
1728;2022-04-08 ; 03:19:58 ;" ""Пришла координата: $GPRMC,001958.000,A,5952.67950,N,03020.77857,E,0.0,0.0,080422,,,A*6A"""
1811;2022-04-08 ; 03:20:23 ;" ""Пришла координата: $GPRMC,002023.000,A,5952.67585,N,03020.78392,E,6.6,152.9,080422,,,A*6A"""
1889;2022-04-08 ; 03:20:48 ;" ""Пришла координата: $GPRMC,002048.000,A,5952.65941,N,03020.85966,E,9.2,71.2,080422,,,A*52"""
1970;2022-04-08 ; 03:21:13 ;" ""Пришла координата: $GPRMC,002113.000,A,5952.66306,N,03020.88607,E,1.6,72.6,080422,,,A*59"""
2060;2022-04-08 ; 03:21:38 ;" ""Пришла координата: $GPRMC,002138.000,A,5952.60067,N,03021.00984,E,26.9,152.4,080422,,,A*5C"""
2147;2022-04-08 ; 03:22:03 ;" ""Пришла координата: $GPRMC,002203.000,A,5952.42192,N,03021.17125,E,20.5,165.0,080422,,,A*53"""
2231;2022-04-08 ; 03:22:28 ;" ""Пришла координата: $GPRMC,002228.000,A,5952.37265,N,03021.05072,E,7.6,255.3,080422,,,A*66"""
2323;2022-04-08 ; 03:22:53 ;" ""Пришла координата: $GPRMC,002253.000,A,5952.30385,N,03021.07093,E,3.3,163.4,080422,,,A*6F"""
2404;2022-04-08 ; 03:23:18 ;" ""Пришла координата: $GPRMC,002318.000,A,5952.28435,N,03021.08274,E,10.4,157.6,080422,,,A*50"""
2502;2022-04-08 ; 03:23:43 ;" ""Пришла координата: $GPRMC,002343.000,A,5952.23799,N,03021.10359,E,4.0,159.8,080422,,,A*66"""
2586;2022-04-08 ; 03:24:08 ;" ""Пришла координата: $GPRMC,002408.000,A,5952.23626,N,03021.11171,E,0.0,0.0,080422,,,A*63"""
2673;2022-04-08 ; 03:24:33 ;" ""Пришла координата: $GPRMC,002433.000,A,5952.23646,N,03021.11225,E,0.0,0.0,080422,,,A*6F"""
2758;2022-04-08 ; 03:24:58 ;" ""Пришла координата: $GPRMC,002458.000,A,5952.23646,N,03021.11225,E,0.1,0.0,080422,,,A*63"""
2847;2022-04-08 ; 03:25:23 ;" ""Пришла координата: $GPRMC,002523.000,A,5952.23627,N,03021.11251,E,0.0,0.0,080422,,,A*6B"""
2939;2022-04-08 ; 03:25:48 ;" ""Пришла координата: $GPRMC,002548.000,A,5952.23627,N,03021.11251,E,0.0,0.0,080422,,,A*66"""
3024;2022-04-08 ; 03:26:13 ;" ""Пришла координата: $GPRMC,002613.000,A,5952.23625,N,03021.11262,E,0.0,0.0,080422,,,A*69"""
3114;2022-04-08 ; 03:26:38 ;" ""Пришла координата: $GPRMC,002638.000,A,5952.23591,N,03021.11255,E,0.0,0.0,080422,,,A*68"""
3205;2022-04-08 ; 03:27:03 ;" ""Пришла координата: $GPRMC,002703.000,A,5952.23591,N,03021.11255,E,0.1,0.0,080422,,,A*60"""
3286;2022-04-08 ; 03:27:28 ;" ""Пришла координата: $GPRMC,002728.000,A,5952.23598,N,03021.11229,E,0.1,0.0,080422,,,A*6B"""
3382;2022-04-08 ; 03:27:53 ;" ""Пришла координата: $GPRMC,002753.000,A,5952.23627,N,03021.11238,E,0.0,0.0,080422,,,A*61"""
3465;2022-04-08 ; 03:28:18 ;" ""Пришла координата: $GPRMC,002818.000,A,5952.23627,N,03021.11238,E,0.0,0.0,080422,,,A*61"""
3555;2022-04-08 ; 03:28:43 ;" ""Пришла координата: $GPRMC,002843.000,A,5952.23624,N,03021.11183,E,0.1,0.0,080422,,,A*6E"""
3642;2022-04-08 ; 03:29:08 ;" ""Пришла координата: $GPRMC,002908.000,A,5952.23624,N,03021.11183,E,0.1,0.0,080422,,,A*60"""
3733;2022-04-08 ; 03:29:33 ;" ""Пришла координата: $GPRMC,002933.000,A,5952.23633,N,03021.11214,E,0.0,0.0,080422,,,A*62"""
3821;2022-04-08 ; 03:29:58 ;" ""Пришла координата: $GPRMC,002958.000,A,5952.23648,N,03021.11201,E,0.0,0.0,080422,,,A*67"""
3907;2022-04-08 ; 03:30:23 ;" ""Пришла координата: $GPRMC,003023.000,A,5952.23648,N,03021.11201,E,0.1,0.0,080422,,,A*62"""
3994;2022-04-08 ; 03:30:48 ;" ""Пришла координата: $GPRMC,003048.000,A,5952.23633,N,03021.11168,E,0.0,0.0,080422,,,A*6E"""
4081;2022-04-08 ; 03:31:13 ;" ""Пришла координата: $GPRMC,003113.000,A,5952.23050,N,03021.12526,E,0.1,0.0,080422,,,A*6E"""
4166;2022-04-08 ; 03:31:38 ;" ""Пришла координата: $GPRMC,003138.000,A,5952.23050,N,03021.12526,E,0.1,0.0,080422,,,A*67"""
4263;2022-04-08 ; 03:32:03 ;" ""Пришла координата: $GPRMC,003203.000,A,5952.23069,N,03021.12638,E,0.0,0.0,080422,,,A*6B"""
4350;2022-04-08 ; 03:32:28 ;" ""Пришла координата: $GPRMC,003228.000,A,5952.23061,N,03021.12702,E,0.1,0.0,080422,,,A*63"""
4435;2022-04-08 ; 03:32:53 ;" ""Пришла координата: $GPRMC,003253.000,A,5952.23061,N,03021.12702,E,0.0,0.0,080422,,,A*6E"""
4520;2022-04-08 ; 03:33:18 ;" ""Пришла координата: $GPRMC,003318.000,A,5952.23078,N,03021.12688,E,0.0,0.0,080422,,,A*6B"""
4614;2022-04-08 ; 03:33:43 ;" ""Пришла координата: $GPRMC,003343.000,A,5952.23078,N,03021.12688,E,0.0,0.0,080422,,,A*65"""
4701;2022-04-08 ; 03:34:08 ;" ""Пришла координата: $GPRMC,003408.000,A,5952.23074,N,03021.12698,E,0.1,0.0,080422,,,A*61"""
4786;2022-04-08 ; 03:34:33 ;" ""Пришла координата: $GPRMC,003433.000,A,5952.23076,N,03021.12703,E,0.1,0.0,080422,,,A*68"""
4877;2022-04-08 ; 03:34:58 ;" ""Пришла координата: $GPRMC,003458.000,A,5952.23076,N,03021.12703,E,0.0,0.0,080422,,,A*64"""
4963;2022-04-08 ; 03:35:23 ;" ""Пришла координата: $GPRMC,003523.000,A,5952.23059,N,03021.12644,E,0.0,0.0,080422,,,A*66"""
5049;2022-04-08 ; 03:35:48 ;" ""Пришла координата: $GPRMC,003548.000,A,5952.23052,N,03021.12644,E,0.0,0.0,080422,,,A*60"""
5140;2022-04-08 ; 03:36:13 ;" ""Пришла координата: $GPRMC,003613.000,A,5952.23052,N,03021.12644,E,0.0,0.0,080422,,,A*6D"""
5227;2022-04-08 ; 03:36:38 ;" ""Пришла координата: $GPRMC,003638.000,A,5952.23041,N,03021.12591,E,0.0,0.0,080422,,,A*6D"""
5320;2022-04-08 ; 03:37:03 ;" ""Пришла координата: $GPRMC,003703.000,A,5952.22578,N,03021.13346,E,1.3,127.1,080422,,,A*60"""
5398;2022-04-08 ; 03:37:28 ;" ""Пришла координата: $GPRMC,003728.000,A,5952.22478,N,03021.13703,E,0.0,0.0,080422,,,A*6A"""
5494;2022-04-08 ; 03:37:53 ;" ""Пришла координата: $GPRMC,003753.000,A,5952.22447,N,03021.13664,E,0.1,0.0,080422,,,A*6B"""
5577;2022-04-08 ; 03:38:18 ;" ""Пришла координата: $GPRMC,003818.000,A,5952.22447,N,03021.13664,E,0.1,0.0,080422,,,A*6B"""
5670;2022-04-08 ; 03:38:43 ;" ""Пришла координата: $GPRMC,003843.000,A,5952.22416,N,03021.13655,E,0.1,0.0,080422,,,A*63"""
5760;2022-04-08 ; 03:39:08 ;" ""Пришла координата: $GPRMC,003908.000,A,5952.22437,N,03021.13688,E,0.0,0.0,080422,,,A*6F"""
5843;2022-04-08 ; 03:39:33 ;" ""Пришла координата: $GPRMC,003933.000,A,5952.22437,N,03021.13688,E,0.0,0.0,080422,,,A*67"""
5933;2022-04-08 ; 03:39:59 ;" ""Пришла координата: $GPRMC,003958.000,A,5952.22448,N,03021.13698,E,0.0,0.0,080422,,,A*63"""
6021;2022-04-08 ; 03:40:23 ;" ""Пришла координата: $GPRMC,004023.000,A,5952.22448,N,03021.13698,E,0.1,0.0,080422,,,A*60"""
6110;2022-04-08 ; 03:40:48 ;" ""Пришла координата: $GPRMC,004048.000,A,5952.22446,N,03021.13711,E,0.0,0.0,080422,,,A*62"""
6193;2022-04-08 ; 03:41:13 ;" ""Пришла координата: $GPRMC,004113.000,A,5952.22438,N,03021.13685,E,0.1,0.0,080422,,,A*69"""
6283;2022-04-08 ; 03:41:38 ;" ""Пришла координата: $GPRMC,004138.000,A,5952.22438,N,03021.13685,E,0.0,0.0,080422,,,A*61"""
6377;2022-04-08 ; 03:42:03 ;" ""Пришла координата: $GPRMC,004203.000,A,5952.22473,N,03021.13644,E,0.0,0.0,080422,,,A*68"""
6459;2022-04-08 ; 03:42:28 ;" ""Пришла координата: $GPRMC,004228.000,A,5952.22497,N,03021.13647,E,0.1,0.0,080422,,,A*69"""
6554;2022-04-08 ; 03:42:53 ;" ""Пришла координата: $GPRMC,004253.000,A,5952.22371,N,03021.15563,E,0.1,0.0,080422,,,A*69"""
6635;2022-04-08 ; 03:43:18 ;" ""Пришла координата: $GPRMC,004318.000,A,5952.22371,N,03021.15563,E,0.1,0.0,080422,,,A*67"""
6727;2022-04-08 ; 03:43:44 ;" ""Пришла координата: $GPRMC,004343.000,A,5952.22390,N,03021.15588,E,0.0,0.0,080422,,,A*62"""
6813;2022-04-08 ; 03:44:08 ;" ""Пришла координата: $GPRMC,004408.000,A,5952.22385,N,03021.15580,E,0.0,0.0,080422,,,A*66"""
6907;2022-04-08 ; 03:44:33 ;" ""Пришла координата: $GPRMC,004433.000,A,5952.22385,N,03021.15580,E,0.1,0.0,080422,,,A*6F"""
6985;2022-04-08 ; 03:44:58 ;" ""Пришла координата: $GPRMC,004458.000,A,5952.22378,N,03021.15586,E,0.1,0.0,080422,,,A*66"""
7079;2022-04-08 ; 03:45:23 ;" ""Пришла координата: $GPRMC,004523.000,A,5952.22378,N,03021.15586,E,0.0,0.0,080422,,,A*6A"""
7171;2022-04-08 ; 03:45:48 ;" ""Пришла координата: $GPRMC,004548.000,A,5952.22359,N,03021.15572,E,0.0,0.0,080422,,,A*6F"""
7248;2022-04-08 ; 03:46:13 ;" ""Пришла координата: $GPRMC,004613.000,A,5952.22312,N,03021.15590,E,0.0,0.0,080422,,,A*61"""
7344;2022-04-08 ; 03:46:38 ;" ""Пришла координата: $GPRMC,004638.000,A,5952.22312,N,03021.15590,E,0.1,0.0,080422,,,A*69"""
7437;2022-04-08 ; 03:47:03 ;" ""Пришла координата: $GPRMC,004703.000,A,5952.22296,N,03021.15590,E,0.0,0.0,080422,,,A*6C"""
7518;2022-04-08 ; 03:47:28 ;" ""Пришла координата: $GPRMC,004728.000,A,5952.22401,N,03021.16054,E,4.1,54.8,080422,,,A*5F"""
7608;2022-04-08 ; 03:47:53 ;" ""Пришла координата: $GPRMC,004753.000,A,5952.23349,N,03021.16822,E,0.1,0.0,080422,,,A*6D"""
7716;2022-04-08 ; 03:48:18 ;" ""Пришла координата: $GPRMC,004818.000,A,5952.23357,N,03021.16838,E,0.0,0.0,080422,,,A*68"""
7828;2022-04-08 ; 03:48:43 ;" ""Пришла координата: $GPRMC,004843.000,A,5952.23357,N,03021.16838,E,0.0,0.0,080422,,,A*66"""
7937;2022-04-08 ; 03:49:08 ;" ""Пришла координата: $GPRMC,004908.000,A,5952.23360,N,03021.16737,E,0.0,0.0,080422,,,A*6C"""
8050;2022-04-08 ; 03:49:33 ;" ""Пришла координата: $GPRMC,004933.000,A,5952.23360,N,03021.16737,E,0.0,0.0,080422,,,A*64"""
8157;2022-04-08 ; 03:49:58 ;" ""Пришла координата: $GPRMC,004958.000,A,5952.23380,N,03021.16651,E,0.0,0.0,080422,,,A*66"""
8268;2022-04-08 ; 03:50:23 ;" ""Пришла координата: $GPRMC,005023.000,A,5952.23396,N,03021.16637,E,0.0,0.0,080422,,,A*65"""
8374;2022-04-08 ; 03:50:48 ;" ""Пришла координата: $GPRMC,005048.000,A,5952.23396,N,03021.16637,E,0.0,0.0,080422,,,A*68"""
8489;2022-04-08 ; 03:51:13 ;" ""Пришла координата: $GPRMC,005113.000,A,5952.23380,N,03021.16650,E,0.0,0.0,080422,,,A*61"""
8594;2022-04-08 ; 03:51:38 ;" ""Пришла координата: $GPRMC,005138.000,A,5952.23403,N,03021.16622,E,0.0,0.0,080422,,,A*61"""
8698;2022-04-08 ; 03:52:03 ;" ""Пришла координата: $GPRMC,005203.000,A,5952.24042,N,03021.12931,E,9.1,274.0,080422,,,A*6C"""
8785;2022-04-08 ; 03:52:28 ;" ""Пришла координата: $GPRMC,005228.000,A,5952.32484,N,03021.06635,E,18.0,344.8,080422,,,A*59"""
8873;2022-04-08 ; 03:52:53 ;" ""Пришла координата: $GPRMC,005253.000,A,5952.38486,N,03021.17796,E,15.3,75.4,080422,,,A*66"""
8959;2022-04-08 ; 03:53:18 ;" ""Пришла координата: $GPRMC,005318.000,A,5952.51872,N,03021.11211,E,30.2,334.7,080422,,,A*5F"""
9049;2022-04-08 ; 03:53:43 ;" ""Пришла координата: $GPRMC,005343.000,A,5952.70444,N,03020.93729,E,20.5,333.8,080422,,,A*50"""
9132;2022-04-08 ; 03:54:08 ;" ""Пришла координата: $GPRMC,005408.000,A,5952.90430,N,03020.80669,E,31.4,343.7,080422,,,A*5B"""
9245;2022-04-08 ; 03:54:33 ;" ""Пришла координата: $GPRMC,005433.000,A,5953.12905,N,03020.68201,E,35.0,348.2,080422,,,A*51"""
9337;2022-04-08 ; 03:54:58 ;" ""Пришла координата: $GPRMC,005458.000,A,5953.37322,N,03020.70774,E,36.2,2.8,080422,,,A*5C"""
9411;2022-04-08 ; 03:55:23 ;" ""Пришла координата: $GPRMC,005523.000,A,5953.61569,N,03020.60651,E,33.7,334.7,080422,,,A*55"""
9501;2022-04-08 ; 03:55:48 ;" ""Пришла координата: $GPRMC,005548.000,A,5953.80988,N,03020.47570,E,33.5,357.0,080422,,,A*51"""
9587;2022-04-08 ; 03:56:13 ;" ""Пришла координата: $GPRMC,005613.000,A,5954.04259,N,03020.42712,E,32.9,346.0,080422,,,A*5E"""
9676;2022-04-08 ; 03:56:38 ;" ""Пришла координата: $GPRMC,005638.000,A,5954.22880,N,03020.50607,E,30.6,24.0,080422,,,A*61"""
9769;2022-04-08 ; 03:57:03 ;" ""Пришла координата: $GPRMC,005703.000,A,5954.27878,N,03020.55562,E,0.1,0.0,080422,,,A*6D"""
9851;2022-04-08 ; 03:57:28 ;" ""Пришла координата: $GPRMC,005728.000,A,5954.33131,N,03020.60800,E,27.0,29.5,080422,,,A*60"""
9942;2022-04-08 ; 03:57:53 ;" ""Пришла координата: $GPRMC,005753.000,A,5954.50448,N,03020.77753,E,28.1,18.2,080422,,,A*66"""
10021;2022-04-08 ; 03:58:18 ;" ""Пришла координата: $GPRMC,005818.000,A,5954.57465,N,03020.82928,E,0.1,0.0,080422,,,A*67"""
10117;2022-04-08 ; 03:58:43 ;" ""Пришла координата: $GPRMC,005843.000,A,5954.57763,N,03020.83510,E,9.2,15.5,080422,,,A*51"""
10206;2022-04-08 ; 03:59:08 ;" ""Пришла координата: $GPRMC,005908.000,A,5954.69359,N,03020.91123,E,7.5,9.0,080422,,,A*69"""
10292;2022-04-08 ; 03:59:33 ;" ""Пришла координата: $GPRMC,005933.000,A,5954.70266,N,03020.91923,E,0.1,0.0,080422,,,A*66"""
10377;2022-04-08 ; 03:59:58 ;" ""Пришла координата: $GPRMC,005958.000,A,5954.72708,N,03020.93616,E,18.2,15.8,080422,,,A*69"""
10466;2022-04-08 ; 04:00:23 ;" ""Пришла координата: $GPRMC,010023.000,A,5954.88055,N,03021.02447,E,24.7,16.2,080422,,,A*6E"""
10675;2022-04-08 ; 04:01:22 ;" ""Пришла координата: $GPRMC,010120.000,A,5955.23152,N,03021.24476,E,17.6,15.8,080422,,,A*64"""
10793;2022-04-08 ; 04:01:45 ;" ""Пришла координата: $GPRMC,010145.000,A,5955.37407,N,03021.33897,E,16.5,21.3,080422,,,A*6C"""
10874;2022-04-08 ; 04:02:10 ;" ""Пришла координата: $GPRMC,010210.000,A,5955.40093,N,03021.37257,E,10.5,22.7,080422,,,A*65"""
10961;2022-04-08 ; 04:02:35 ;" ""Пришла координата: $GPRMC,010235.000,A,5955.55916,N,03021.47455,E,27.5,17.8,080422,,,A*6C"""
11053;2022-04-08 ; 04:03:00 ;" ""Пришла координата: $GPRMC,010300.000,A,5955.74485,N,03021.60298,E,30.3,17.7,080422,,,A*62"""
11136;2022-04-08 ; 04:03:25 ;" ""Пришла координата: $GPRMC,010325.000,A,5955.84814,N,03021.64903,E,0.1,0.0,080422,,,A*63"""
11230;2022-04-08 ; 04:03:50 ;" ""Пришла координата: $GPRMC,010350.000,A,5955.84814,N,03021.64903,E,0.1,0.0,080422,,,A*61"""
11312;2022-04-08 ; 04:04:15 ;" ""Пришла координата: $GPRMC,010415.000,A,5955.88077,N,03021.54900,E,24.8,282.4,080422,,,A*55"""
11398;2022-04-08 ; 04:04:40 ;" ""Пришла координата: $GPRMC,010440.000,A,5955.90429,N,03021.38113,E,0.2,0.0,080422,,,A*63"""
11492;2022-04-08 ; 04:05:05 ;" ""Пришла координата: $GPRMC,010505.000,A,5955.91963,N,03021.26923,E,21.7,285.0,080422,,,A*5C"""
11573;2022-04-08 ; 04:05:30 ;" ""Пришла координата: $GPRMC,010530.000,A,5955.95486,N,03020.95466,E,15.2,275.7,080422,,,A*57"""
11665;2022-04-08 ; 04:05:55 ;" ""Пришла координата: $GPRMC,010555.000,A,5955.96691,N,03020.89058,E,4.2,288.1,080422,,,A*63"""
11747;2022-04-08 ; 04:06:20 ;" ""Пришла координата: $GPRMC,010620.000,A,5956.09088,N,03020.88369,E,22.4,2.8,080422,,,A*52"""
11841;2022-04-08 ; 04:06:45 ;" ""Пришла координата: $GPRMC,010645.000,A,5956.16332,N,03020.88738,E,15.3,1.6,080422,,,A*53"""
11926;2022-04-08 ; 04:07:10 ;" ""Пришла координата: $GPRMC,010710.000,A,5956.35153,N,03020.89480,E,34.1,1.5,080422,,,A*55"""
12011;2022-04-08 ; 04:07:35 ;" ""Пришла координата: $GPRMC,010735.000,A,5956.57909,N,03020.90935,E,31.9,1.1,080422,,,A*53"""
12100;2022-04-08 ; 04:08:00 ;" ""Пришла координата: $GPRMC,010800.000,A,5956.78231,N,03020.93111,E,11.2,17.9,080422,,,A*6C"""
12189;2022-04-08 ; 04:08:25 ;" ""Пришла координата: $GPRMC,010825.000,A,5956.78483,N,03020.93528,E,0.1,0.0,080422,,,A*66"""
12278;2022-04-08 ; 04:08:50 ;" ""Пришла координата: $GPRMC,010850.000,A,5956.88046,N,03020.93511,E,28.6,1.6,080422,,,A*56"""
12372;2022-04-08 ; 04:09:15 ;" ""Пришла координата: $GPRMC,010915.000,A,5957.09299,N,03020.97229,E,32.1,6.7,080422,,,A*5C"""
12451;2022-04-08 ; 04:09:40 ;" ""Пришла координата: $GPRMC,010940.000,A,5957.23846,N,03021.04267,E,14.1,105.5,080422,,,A*59"""
12547;2022-04-08 ; 04:10:05 ;" ""Пришла координата: $GPRMC,011005.000,A,5957.21660,N,03021.05062,E,28.9,280.3,080422,,,A*51"""
12626;2022-04-08 ; 04:10:30 ;" ""Пришла координата: $GPRMC,011030.000,A,5957.29058,N,03020.60550,E,33.9,297.9,080422,,,A*52"""
12719;2022-04-08 ; 04:10:55 ;" ""Пришла координата: $GPRMC,011055.000,A,5957.50778,N,03020.36681,E,39.7,342.8,080422,,,A*5A"""
12809;2022-04-08 ; 04:11:20 ;" ""Пришла координата: $GPRMC,011120.000,A,5957.78403,N,03020.29244,E,41.8,355.1,080422,,,A*50"""
12901;2022-04-08 ; 04:11:45 ;" ""Пришла координата: $GPRMC,011145.000,A,5958.05386,N,03020.23821,E,38.1,347.6,080422,,,A*5C"""
12987;2022-04-08 ; 04:12:10 ;" ""Пришла координата: $GPRMC,011210.000,A,5958.30149,N,03020.12044,E,34.0,344.4,080422,,,A*5D"""
13069;2022-04-08 ; 04:12:35 ;" ""Пришла координата: $GPRMC,011235.000,A,5958.52012,N,03019.87622,E,36.6,327.6,080422,,,A*52"""
13156;2022-04-08 ; 04:13:01 ;" ""Пришла координата: $GPRMC,011300.000,A,5958.70938,N,03019.54295,E,36.0,312.8,080422,,,A*5C"""
13243;2022-04-08 ; 04:13:25 ;" ""Пришла координата: $GPRMC,011325.000,A,5958.80965,N,03019.57155,E,24.6,48.0,080422,,,A*61"""
13343;2022-04-08 ; 04:13:50 ;" ""Пришла координата: $GPRMC,011350.000,A,5958.91753,N,03019.77177,E,25.9,47.3,080422,,,A*68"""
13427;2022-04-08 ; 04:14:15 ;" ""Пришла координата: $GPRMC,011415.000,A,5959.03187,N,03020.03552,E,14.5,54.0,080422,,,A*6E"""
13510;2022-04-08 ; 04:14:40 ;" ""Пришла координата: $GPRMC,011440.000,A,5959.05814,N,03020.10864,E,9.9,59.4,080422,,,A*58"""
13604;2022-04-08 ; 04:15:05 ;" ""Пришла координата: $GPRMC,011505.000,A,5959.22013,N,03020.05796,E,28.6,347.6,080422,,,A*56"""
13685;2022-04-08 ; 04:15:30 ;" ""Пришла координата: $GPRMC,011530.000,A,5959.28894,N,03020.03038,E,1.1,351.0,080422,,,A*65"""
13779;2022-04-08 ; 04:15:55 ;" ""Пришла координата: $GPRMC,011555.000,A,5959.44327,N,03019.96622,E,35.1,350.4,080422,,,A*56"""
13866;2022-04-08 ; 04:16:20 ;" ""Пришла координата: $GPRMC,011620.000,A,5959.63699,N,03019.88417,E,15.4,347.5,080422,,,A*59"""
13957;2022-04-08 ; 04:16:45 ;" ""Пришла координата: $GPRMC,011645.000,A,5959.66566,N,03019.87610,E,0.1,0.0,080422,,,A*62"""
14039;2022-04-08 ; 04:17:10 ;" ""Пришла координата: $GPRMC,011710.000,A,5959.73200,N,03019.85120,E,24.0,349.8,080422,,,A*57"""
14128;2022-04-08 ; 04:17:35 ;" ""Пришла координата: $GPRMC,011735.000,A,5959.89768,N,03019.78608,E,29.5,349.2,080422,,,A*53"""
14216;2022-04-08 ; 04:18:00 ;" ""Пришла координата: $GPRMC,011800.000,A,6000.11739,N,03019.69873,E,28.1,347.4,080422,,,A*56"""
14302;2022-04-08 ; 04:18:25 ;" ""Пришла координата: $GPRMC,011825.000,A,6000.24773,N,03019.64977,E,26.1,349.0,080422,,,A*55"""
14399;2022-04-08 ; 04:18:50 ;" ""Пришла координата: $GPRMC,011850.000,A,6000.46751,N,03019.56078,E,38.4,348.7,080422,,,A*58"""
14480;2022-04-08 ; 04:19:15 ;" ""Пришла координата: $GPRMC,011915.000,A,6000.64924,N,03019.49434,E,11.6,347.5,080422,,,A*52"""
14566;2022-04-08 ; 04:19:40 ;" ""Пришла координата: $GPRMC,011940.000,A,6000.85384,N,03019.40545,E,37.3,348.3,080422,,,A*5B"""
14655;2022-04-08 ; 04:20:05 ;" ""Пришла координата: $GPRMC,012005.000,A,6001.01169,N,03019.35138,E,0.2,0.0,080422,,,A*69"""
14738;2022-04-08 ; 04:20:30 ;" ""Пришла координата: $GPRMC,012030.000,A,6001.11331,N,03019.30837,E,31.1,349.0,080422,,,A*5D"""
14830;2022-04-08 ; 04:20:55 ;" ""Пришла координата: $GPRMC,012055.000,A,6001.34975,N,03019.20863,E,38.0,349.6,080422,,,A*5D"""
14923;2022-04-08 ; 04:21:20 ;" ""Пришла координата: $GPRMC,012120.000,A,6001.54736,N,03019.12750,E,35.3,354.1,080422,,,A*5A"""
15011;2022-04-08 ; 04:21:45 ;" ""Пришла координата: $GPRMC,012145.000,A,6001.81006,N,03019.20462,E,34.7,10.5,080422,,,A*64"""
15095;2022-04-08 ; 04:22:10 ;" ""Пришла координата: $GPRMC,012210.000,A,6002.04308,N,03019.24311,E,34.5,354.9,080422,,,A*5E"""
15183;2022-04-08 ; 04:22:35 ;" ""Пришла координата: $GPRMC,012235.000,A,6002.31038,N,03019.10863,E,39.7,342.9,080422,,,A*5E"""
15271;2022-04-08 ; 04:23:00 ;" ""Пришла координата: $GPRMC,012300.000,A,6002.55509,N,03018.96482,E,25.3,343.1,080422,,,A*50"""
15361;2022-04-08 ; 04:23:25 ;" ""Пришла координата: $GPRMC,012325.000,A,6002.60342,N,03018.93571,E,0.2,0.0,080422,,,A*63"""
15451;2022-04-08 ; 04:23:50 ;" ""Пришла координата: $GPRMC,012350.000,A,6002.65871,N,03018.90402,E,27.7,344.1,080422,,,A*5B"""
15541;2022-04-08 ; 04:24:15 ;" ""Пришла координата: $GPRMC,012415.000,A,6002.91109,N,03018.75222,E,42.4,343.4,080422,,,A*5D"""
15620;2022-04-08 ; 04:24:40 ;" ""Пришла координата: $GPRMC,012440.000,A,6003.17512,N,03018.60142,E,39.0,343.8,080422,,,A*59"""
15712;2022-04-08 ; 04:25:05 ;" ""Пришла координата: $GPRMC,012505.000,A,6003.44327,N,03018.43200,E,41.6,339.7,080422,,,A*50"""
15802;2022-04-08 ; 04:25:30 ;" ""Пришла координата: $GPRMC,012530.000,A,6003.70696,N,03018.24625,E,32.9,341.7,080422,,,A*58"""
15892;2022-04-08 ; 04:25:55 ;" ""Пришла координата: $GPRMC,012555.000,A,6003.76539,N,03018.34783,E,21.3,69.8,080422,,,A*69"""
15978;2022-04-08 ; 04:26:20 ;" ""Пришла координата: $GPRMC,012620.000,A,6003.80261,N,03018.54624,E,7.3,72.4,080422,,,A*53"""
16067;2022-04-08 ; 04:26:45 ;" ""Пришла координата: $GPRMC,012645.000,A,6003.83030,N,03018.69878,E,15.8,68.8,080422,,,A*63"""
16152;2022-04-08 ; 04:27:10 ;" ""Пришла координата: $GPRMC,012710.000,A,6003.88832,N,03018.84369,E,14.5,18.7,080422,,,A*6F"""
16237;2022-04-08 ; 04:27:35 ;" ""Пришла координата: $GPRMC,012735.000,A,6003.87937,N,03019.00773,E,0.1,0.0,080422,,,A*6E"""
16330;2022-04-08 ; 04:28:00 ;" ""Пришла координата: $GPRMC,012800.000,A,6003.87937,N,03019.00773,E,0.0,0.0,080422,,,A*66"""
16419;2022-04-08 ; 04:28:25 ;" ""Пришла координата: $GPRMC,012825.000,A,6003.87829,N,03019.00849,E,0.0,0.0,080422,,,A*69"""
16508;2022-04-08 ; 04:28:50 ;" ""Пришла координата: $GPRMC,012850.000,A,6003.87829,N,03019.00849,E,0.0,0.0,080422,,,A*6B"""
16596;2022-04-08 ; 04:29:15 ;" ""Пришла координата: $GPRMC,012915.000,A,6003.87839,N,03019.01008,E,0.0,0.0,080422,,,A*66"""
16680;2022-04-08 ; 04:29:40 ;" ""Пришла координата: $GPRMC,012940.000,A,6003.87818,N,03019.00994,E,0.0,0.0,080422,,,A*68"""
16774;2022-04-08 ; 04:30:05 ;" ""Пришла координата: $GPRMC,013005.000,A,6003.87818,N,03019.00994,E,0.0,0.0,080422,,,A*61"""
16855;2022-04-08 ; 04:30:30 ;" ""Пришла координата: $GPRMC,013030.000,A,6003.87769,N,03019.01023,E,0.0,0.0,080422,,,A*6A"""
16949;2022-04-08 ; 04:30:55 ;" ""Пришла координата: $GPRMC,013055.000,A,6003.87737,N,03019.01022,E,0.1,0.0,080422,,,A*62"""
17036;2022-04-08 ; 04:31:20 ;" ""Пришла координата: $GPRMC,013120.000,A,6003.87737,N,03019.01022,E,0.0,0.0,080422,,,A*60"""
17130;2022-04-08 ; 04:31:45 ;" ""Пришла координата: $GPRMC,013145.000,A,6003.87730,N,03019.01111,E,0.0,0.0,080422,,,A*65"""
17213;2022-04-08 ; 04:32:10 ;" ""Пришла координата: $GPRMC,013210.000,A,6003.87730,N,03019.01111,E,0.0,0.0,080422,,,A*66"""
17298;2022-04-08 ; 04:32:35 ;" ""Пришла координата: $GPRMC,013235.000,A,6003.87727,N,03019.01107,E,0.0,0.0,080422,,,A*60"""
17387;2022-04-08 ; 04:33:00 ;" ""Пришла координата: $GPRMC,013300.000,A,6003.87702,N,03019.01174,E,0.0,0.0,080422,,,A*64"""
17475;2022-04-08 ; 04:33:25 ;" ""Пришла координата: $GPRMC,013325.000,A,6003.87702,N,03019.01174,E,0.0,0.0,080422,,,A*63"""
17575;2022-04-08 ; 04:33:50 ;" ""Пришла координата: $GPRMC,013350.000,A,6003.87684,N,03019.01158,E,0.0,0.0,080422,,,A*60"""
17658;2022-04-08 ; 04:34:15 ;" ""Пришла координата: $GPRMC,013415.000,A,6003.87650,N,03019.01190,E,0.0,0.0,080422,,,A*6B"""
17743;2022-04-08 ; 04:34:40 ;" ""Пришла координата: $GPRMC,013440.000,A,6003.87650,N,03019.01190,E,0.0,0.0,080422,,,A*6B"""
17838;2022-04-08 ; 04:35:05 ;" ""Пришла координата: $GPRMC,013505.000,A,6003.87652,N,03019.01199,E,0.0,0.0,080422,,,A*60"""
17914;2022-04-08 ; 04:35:30 ;" ""Пришла координата: $GPRMC,013530.000,A,6003.87652,N,03019.01199,E,0.0,0.0,080422,,,A*66"""
18013;2022-04-08 ; 04:35:55 ;" ""Пришла координата: $GPRMC,013555.000,A,6003.87648,N,03019.01186,E,0.1,0.0,080422,,,A*61"""
18101;2022-04-08 ; 04:36:20 ;" ""Пришла координата: $GPRMC,013620.000,A,6003.87634,N,03019.01198,E,0.0,0.0,080422,,,A*65"""
18191;2022-04-08 ; 04:36:45 ;" ""Пришла координата: $GPRMC,013645.000,A,6003.87634,N,03019.01198,E,0.0,0.0,080422,,,A*66"""
18273;2022-04-08 ; 04:37:10 ;" ""Пришла координата: $GPRMC,013710.000,A,6003.87634,N,03019.01165,E,0.0,0.0,080422,,,A*65"""
18362;2022-04-08 ; 04:37:35 ;" ""Пришла координата: $GPRMC,013735.000,A,6003.87639,N,03019.01153,E,0.1,0.0,080422,,,A*6B"""
18449;2022-04-08 ; 04:38:00 ;" ""Пришла координата: $GPRMC,013800.000,A,6003.87639,N,03019.01153,E,0.1,0.0,080422,,,A*62"""
18537;2022-04-08 ; 04:38:25 ;" ""Пришла координата: $GPRMC,013825.000,A,6003.87641,N,03019.01154,E,0.0,0.0,080422,,,A*6C"""
18634;2022-04-08 ; 04:38:50 ;" ""Пришла координата: $GPRMC,013850.000,A,6003.87641,N,03019.01154,E,0.1,0.0,080422,,,A*6F"""
18714;2022-04-08 ; 04:39:15 ;" ""Пришла координата: $GPRMC,013915.000,A,6003.87637,N,03019.01180,E,0.0,0.0,080422,,,A*66"""
18800;2022-04-08 ; 04:39:40 ;" ""Пришла координата: $GPRMC,013940.000,A,6003.87632,N,03019.01125,E,0.1,0.0,080422,,,A*6D"""
18891;2022-04-08 ; 04:40:05 ;" ""Пришла координата: $GPRMC,014005.000,A,6003.87632,N,03019.01125,E,0.1,0.0,080422,,,A*62"""
18979;2022-04-08 ; 04:40:30 ;" ""Пришла координата: $GPRMC,014030.000,A,6003.87641,N,03019.01162,E,0.0,0.0,080422,,,A*62"""
19065;2022-04-08 ; 04:40:55 ;" ""Пришла координата: $GPRMC,014055.000,A,6003.86299,N,03019.01490,E,10.3,204.6,080422,,,A*5B"""
19155;2022-04-08 ; 04:41:20 ;" ""Пришла координата: $GPRMC,014120.000,A,6003.81149,N,03019.02488,E,14.6,109.9,080422,,,A*5B"""
19250;2022-04-08 ; 04:41:45 ;" ""Пришла координата: $GPRMC,014145.000,A,6003.78721,N,03019.13252,E,0.0,0.0,080422,,,A*65"""
19329;2022-04-08 ; 04:42:10 ;" ""Пришла координата: $GPRMC,014210.000,A,6003.78721,N,03019.13252,E,0.0,0.0,080422,,,A*66"""
19421;2022-04-08 ; 04:42:35 ;" ""Пришла координата: $GPRMC,014235.000,A,6003.78435,N,03019.15204,E,7.6,149.0,080422,,,A*6F"""
19504;2022-04-08 ; 04:43:00 ;" ""Пришла координата: $GPRMC,014300.000,A,6003.67072,N,03019.06498,E,21.0,202.4,080422,,,A*5A"""
19592;2022-04-08 ; 04:43:25 ;" ""Пришла координата: $GPRMC,014325.000,A,6003.52409,N,03018.95553,E,21.7,199.0,080422,,,A*5C"""
19683;2022-04-08 ; 04:43:50 ;" ""Пришла координата: $GPRMC,014350.000,A,6003.44105,N,03018.88807,E,12.4,201.2,080422,,,A*53"""
19772;2022-04-08 ; 04:44:15 ;" ""Пришла координата: $GPRMC,014415.000,A,6003.30275,N,03018.84795,E,25.7,164.2,080422,,,A*5D"""
19854;2022-04-08 ; 04:44:40 ;" ""Пришла координата: $GPRMC,014440.000,A,6003.22282,N,03018.89156,E,5.3,163.5,080422,,,A*64"""
19946;2022-04-08 ; 04:45:05 ;" ""Пришла координата: $GPRMC,014505.000,A,6003.11391,N,03018.94403,E,12.5,162.0,080422,,,A*5A"""
20029;2022-04-08 ; 04:45:30 ;" ""Пришла координата: $GPRMC,014530.000,A,6003.09640,N,03018.96381,E,0.0,0.0,080422,,,A*60"""
20119;2022-04-08 ; 04:45:55 ;" ""Пришла координата: $GPRMC,014555.000,A,6002.98081,N,03019.03399,E,26.4,163.6,080422,,,A*57"""
20207;2022-04-08 ; 04:46:20 ;" ""Пришла координата: $GPRMC,014620.000,A,6002.80295,N,03019.14038,E,31.2,163.8,080422,,,A*58"""
20300;2022-04-08 ; 04:46:45 ;" ""Пришла координата: $GPRMC,014645.000,A,6002.66816,N,03019.28351,E,20.7,73.8,080422,,,A*64"""
20385;2022-04-08 ; 04:47:10 ;" ""Пришла координата: $GPRMC,014710.000,A,6002.63593,N,03019.60810,E,17.6,116.7,080422,,,A*5A"""
20467;2022-04-08 ; 04:47:35 ;" ""Пришла координата: $GPRMC,014735.000,A,6002.53262,N,03019.61107,E,27.1,200.9,080422,,,A*57"""
20561;2022-04-08 ; 04:48:00 ;" ""Пришла координата: $GPRMC,014800.000,A,6002.33536,N,03019.46293,E,33.3,200.7,080422,,,A*5C"""
20644;2022-04-08 ; 04:48:25 ;" ""Пришла координата: $GPRMC,014825.000,A,6002.22956,N,03019.37878,E,0.1,0.0,080422,,,A*6F"""
20737;2022-04-08 ; 04:48:50 ;" ""Пришла координата: $GPRMC,014850.000,A,6002.21085,N,03019.35879,E,18.5,202.5,080422,,,A*52"""
20828;2022-04-08 ; 04:49:15 ;" ""Пришла координата: $GPRMC,014915.000,A,6002.13710,N,03019.26340,E,14.7,288.8,080422,,,A*5A"""
20907;2022-04-08 ; 04:49:40 ;" ""Пришла координата: $GPRMC,014940.000,A,6002.21293,N,03019.17472,E,0.1,0.0,080422,,,A*68"""
21003;2022-04-08 ; 04:50:05 ;" ""Пришла координата: $GPRMC,015005.000,A,6002.23240,N,03019.15892,E,19.1,338.2,080422,,,A*5F"""
21089;2022-04-08 ; 04:50:30 ;" ""Пришла координата: $GPRMC,015030.000,A,6002.43810,N,03019.03305,E,32.8,344.4,080422,,,A*5F"""
21176;2022-04-08 ; 04:50:55 ;" ""Пришла координата: $GPRMC,015055.000,A,6002.59865,N,03018.93915,E,7.1,343.4,080422,,,A*6E"""
21267;2022-04-08 ; 04:51:20 ;" ""Пришла координата: $GPRMC,015120.000,A,6002.60826,N,03018.93316,E,8.0,343.3,080422,,,A*60"""
21356;2022-04-08 ; 04:51:45 ;" ""Пришла координата: $GPRMC,015145.000,A,6002.79943,N,03018.82233,E,36.3,343.9,080422,,,A*5B"""
21440;2022-04-08 ; 04:52:10 ;" ""Пришла координата: $GPRMC,015210.000,A,6003.03822,N,03018.68222,E,34.4,343.5,080422,,,A*5F"""
21527;2022-04-08 ; 04:52:35 ;" ""Пришла координата: $GPRMC,015235.000,A,6003.26780,N,03018.54820,E,36.2,343.3,080422,,,A*5D"""
21615;2022-04-08 ; 04:53:00 ;" ""Пришла координата: $GPRMC,015300.000,A,6003.53701,N,03018.36898,E,41.2,340.1,080422,,,A*57"""
21703;2022-04-08 ; 04:53:25 ;" ""Пришла координата: $GPRMC,015325.000,A,6003.79389,N,03018.17987,E,36.2,339.3,080422,,,A*5C"""
21795;2022-04-08 ; 04:53:50 ;" ""Пришла координата: $GPRMC,015350.000,A,6003.99391,N,03017.94954,E,28.6,315.6,080422,,,A*53"""
21881;2022-04-08 ; 04:54:15 ;" ""Пришла координата: $GPRMC,015415.000,A,6004.10846,N,03017.68573,E,29.8,307.0,080422,,,A*52"""
21967;2022-04-08 ; 04:54:40 ;" ""Пришла координата: $GPRMC,015440.000,A,6004.23480,N,03017.34373,E,32.3,307.2,080422,,,A*58"""
22061;2022-04-08 ; 04:55:05 ;" ""Пришла координата: $GPRMC,015505.000,A,6004.36021,N,03017.00971,E,30.8,307.0,080422,,,A*57"""
22138;2022-04-08 ; 04:55:30 ;" ""Пришла координата: $GPRMC,015530.000,A,6004.48653,N,03016.67402,E,30.0,307.6,080422,,,A*5C"""
22236;2022-04-08 ; 04:55:55 ;" ""Пришла координата: $GPRMC,015555.000,A,6004.60326,N,03016.36401,E,31.3,306.4,080422,,,A*54"""
22323;2022-04-08 ; 04:56:20 ;" ""Пришла координата: $GPRMC,015620.000,A,6004.74453,N,03015.99214,E,35.5,309.7,080422,,,A*5F"""
22419;2022-04-08 ; 04:56:45 ;" ""Пришла координата: $GPRMC,015645.000,A,6004.92341,N,03015.83382,E,27.4,6.5,080422,,,A*59"""
22503;2022-04-08 ; 04:57:10 ;" ""Пришла координата: $GPRMC,015710.000,A,6005.12355,N,03015.75585,E,32.9,339.9,080422,,,A*56"""
22586;2022-04-08 ; 04:57:35 ;" ""Пришла координата: $GPRMC,015735.000,A,6005.33519,N,03015.59629,E,33.5,339.6,080422,,,A*55"""
22675;2022-04-08 ; 04:58:00 ;" ""Пришла координата: $GPRMC,015800.000,A,6005.55442,N,03015.43591,E,33.0,340.7,080422,,,A*52"""
22758;2022-04-08 ; 04:58:25 ;" ""Пришла координата: $GPRMC,015825.000,A,6005.77585,N,03015.27294,E,35.7,339.6,080422,,,A*51"""
22861;2022-04-08 ; 04:58:50 ;" ""Пришла координата: $GPRMC,015850.000,A,6006.01687,N,03015.08816,E,39.2,339.4,080422,,,A*56"""
22943;2022-04-08 ; 04:59:15 ;" ""Пришла координата: $GPRMC,015915.000,A,6006.26033,N,03014.90203,E,33.3,339.1,080422,,,A*5A"""
23028;2022-04-08 ; 04:59:40 ;" ""Пришла координата: $GPRMC,015940.000,A,6006.38471,N,03014.79702,E,25.0,337.5,080422,,,A*5A"""
23122;2022-04-08 ; 05:00:05 ;" ""Пришла координата: $GPRMC,020005.000,A,6006.59203,N,03014.61176,E,37.6,335.7,080422,,,A*59"""
23202;2022-04-08 ; 05:00:30 ;" ""Пришла координата: $GPRMC,020030.000,A,6006.79601,N,03014.42687,E,18.3,335.8,080422,,,A*54"""
23299;2022-04-08 ; 05:00:55 ;" ""Пришла координата: $GPRMC,020055.000,A,6006.80503,N,03014.41953,E,0.0,0.0,080422,,,A*62"""
23384;2022-04-08 ; 05:01:20 ;" ""Пришла координата: $GPRMC,020120.000,A,6006.81215,N,03014.40332,E,8.4,288.4,080422,,,A*66"""
23480;2022-04-08 ; 05:01:45 ;" ""Пришла координата: $GPRMC,020145.000,A,6006.81688,N,03014.12835,E,23.7,273.8,080422,,,A*5C"""
23559;2022-04-08 ; 05:02:10 ;" ""Пришла координата: $GPRMC,020210.000,A,6006.82582,N,03013.76917,E,28.5,271.2,080422,,,A*50"""
23649;2022-04-08 ; 05:02:35 ;" ""Пришла координата: $GPRMC,020235.000,A,6006.85742,N,03013.38106,E,28.6,283.7,080422,,,A*57"""
23740;2022-04-08 ; 05:03:00 ;" ""Пришла координата: $GPRMC,020300.000,A,6006.92412,N,03012.98905,E,30.9,288.9,080422,,,A*53"""
23828;2022-04-08 ; 05:03:25 ;" ""Пришла координата: $GPRMC,020325.000,A,6006.99140,N,03012.61255,E,28.3,289.3,080422,,,A*5D"""
23921;2022-04-08 ; 05:03:50 ;" ""Пришла координата: $GPRMC,020350.000,A,6007.02081,N,03012.21636,E,29.6,273.0,080422,,,A*57"""
24007;2022-04-08 ; 05:04:15 ;" ""Пришла координата: $GPRMC,020415.000,A,6007.03198,N,03011.78804,E,32.4,272.5,080422,,,A*55"""
24091;2022-04-08 ; 05:04:40 ;" ""Пришла координата: $GPRMC,020440.000,A,6007.04200,N,03011.37416,E,9.8,271.7,080422,,,A*61"""
24183;2022-04-08 ; 05:05:05 ;" ""Пришла координата: $GPRMC,020505.000,A,6007.05422,N,03011.11901,E,24.6,280.4,080422,,,A*55"""
24272;2022-04-08 ; 05:05:30 ;" ""Пришла координата: $GPRMC,020530.000,A,6007.10635,N,03010.77982,E,24.8,290.3,080422,,,A*51"""
24362;2022-04-08 ; 05:05:56 ;" ""Пришла координата: $GPRMC,020555.000,A,6007.17190,N,03010.47351,E,26.8,291.7,080422,,,A*5D"""
24447;2022-04-08 ; 05:06:20 ;" ""Пришла координата: $GPRMC,020620.000,A,6007.23635,N,03010.15024,E,24.5,292.7,080422,,,A*59"""
24539;2022-04-08 ; 05:06:45 ;" ""Пришла координата: $GPRMC,020645.000,A,6007.32000,N,03009.84089,E,25.3,322.4,080422,,,A*53"""
24624;2022-04-08 ; 05:07:10 ;" ""Пришла координата: $GPRMC,020710.000,A,6007.44110,N,03009.65845,E,10.8,326.6,080422,,,A*5F"""
24712;2022-04-08 ; 05:07:35 ;" ""Пришла координата: $GPRMC,020735.000,A,6007.43698,N,03009.59615,E,16.3,231.8,080422,,,A*58"""
24795;2022-04-08 ; 05:08:00 ;" ""Пришла координата: $GPRMC,020800.000,A,6007.34547,N,03009.36548,E,21.2,232.7,080422,,,A*5B"""
24888;2022-04-08 ; 05:08:25 ;" ""Пришла координата: $GPRMC,020825.000,A,6007.30223,N,03009.25756,E,9.6,229.4,080422,,,A*65"""
24977;2022-04-08 ; 05:08:50 ;" ""Пришла координата: $GPRMC,020850.000,A,6007.21022,N,03009.01828,E,23.3,232.4,080422,,,A*53"""
25070;2022-04-08 ; 05:09:15 ;" ""Пришла координата: $GPRMC,020915.000,A,6007.13371,N,03008.82670,E,9.6,218.9,080422,,,A*66"""
25152;2022-04-08 ; 05:09:40 ;" ""Пришла координата: $GPRMC,020940.000,A,6007.13780,N,03008.84266,E,7.6,274.6,080422,,,A*62"""
25245;2022-04-08 ; 05:10:05 ;" ""Пришла координата: $GPRMC,021005.000,A,6007.12616,N,03008.81568,E,0.1,0.0,080422,,,A*6F"""
25331;2022-04-08 ; 05:10:30 ;" ""Пришла координата: $GPRMC,021030.000,A,6007.12616,N,03008.81568,E,0.1,0.0,080422,,,A*69"""
25418;2022-04-08 ; 05:10:55 ;" ""Пришла координата: $GPRMC,021055.000,A,6007.12608,N,03008.81525,E,0.1,0.0,080422,,,A*6C"""
25513;2022-04-08 ; 05:11:20 ;" ""Пришла координата: $GPRMC,021120.000,A,6007.12586,N,03008.81547,E,0.0,0.0,080422,,,A*6F"""
25602;2022-04-08 ; 05:11:45 ;" ""Пришла координата: $GPRMC,021145.000,A,6007.12586,N,03008.81547,E,0.1,0.0,080422,,,A*6D"""
25688;2022-04-08 ; 05:12:10 ;" ""Пришла координата: $GPRMC,021210.000,A,6007.12530,N,03008.81571,E,0.1,0.0,080422,,,A*66"""
25771;2022-04-08 ; 05:12:35 ;" ""Пришла координата: $GPRMC,021235.000,A,6007.11854,N,03008.82436,E,7.8,105.9,080422,,,A*6F"""
25860;2022-04-08 ; 05:13:00 ;" ""Пришла координата: $GPRMC,021300.000,A,6007.12708,N,03008.80842,E,0.9,203.4,080422,,,A*6E"""
25952;2022-04-08 ; 05:13:25 ;" ""Пришла координата: $GPRMC,021325.000,A,6007.12644,N,03008.80772,E,0.1,0.0,080422,,,A*61"""
26046;2022-04-08 ; 05:13:50 ;" ""Пришла координата: $GPRMC,021350.000,A,6007.12645,N,03008.80757,E,0.0,0.0,080422,,,A*64"""
26133;2022-04-08 ; 05:14:15 ;" ""Пришла координата: $GPRMC,021415.000,A,6007.12645,N,03008.80757,E,0.1,0.0,080422,,,A*63"""
26214;2022-04-08 ; 05:14:40 ;" ""Пришла координата: $GPRMC,021440.000,A,6007.12652,N,03008.80770,E,0.0,0.0,080422,,,A*61"""
26310;2022-04-08 ; 05:15:05 ;" ""Пришла координата: $GPRMC,021505.000,A,6007.12642,N,03008.80728,E,0.1,0.0,080422,,,A*6C"""
26391;2022-04-08 ; 05:15:30 ;" ""Пришла координата: $GPRMC,021530.000,A,6007.12642,N,03008.80728,E,0.0,0.0,080422,,,A*6B"""
26488;2022-04-08 ; 05:15:55 ;" ""Пришла координата: $GPRMC,021555.000,A,6007.12654,N,03008.80716,E,0.0,0.0,080422,,,A*62"""
26574;2022-04-08 ; 05:16:20 ;" ""Пришла координата: $GPRMC,021620.000,A,6007.12654,N,03008.80716,E,0.1,0.0,080422,,,A*62"""
26666;2022-04-08 ; 05:16:45 ;" ""Пришла координата: $GPRMC,021645.000,A,6007.12639,N,03008.80676,E,0.0,0.0,080422,,,A*6C"""
26752;2022-04-08 ; 05:17:10 ;" ""Пришла координата: $GPRMC,021710.000,A,6007.12622,N,03008.80665,E,0.1,0.0,080422,,,A*64"""
26843;2022-04-08 ; 05:17:35 ;" ""Пришла координата: $GPRMC,021735.000,A,6007.12622,N,03008.80665,E,0.1,0.0,080422,,,A*63"""
26931;2022-04-08 ; 05:18:00 ;" ""Пришла координата: $GPRMC,021800.000,A,6007.12600,N,03008.80712,E,0.0,0.0,080422,,,A*6A"""
27013;2022-04-08 ; 05:18:25 ;" ""Пришла координата: $GPRMC,021825.000,A,6007.12592,N,03008.80652,E,0.0,0.0,080422,,,A*60"""
27109;2022-04-08 ; 05:18:50 ;" ""Пришла координата: $GPRMC,021850.000,A,6007.12592,N,03008.80652,E,0.0,0.0,080422,,,A*62"""
27193;2022-04-08 ; 05:19:15 ;" ""Пришла координата: $GPRMC,021915.000,A,6007.12565,N,03008.80647,E,0.1,0.0,080422,,,A*6F"""
27281;2022-04-08 ; 05:19:40 ;" ""Пришла координата: $GPRMC,021940.000,A,6007.12565,N,03008.80647,E,0.1,0.0,080422,,,A*6F"""
27373;2022-04-08 ; 05:20:05 ;" ""Пришла координата: $GPRMC,022005.000,A,6007.12555,N,03008.80636,E,0.0,0.0,080422,,,A*60"""
27459;2022-04-08 ; 05:20:30 ;" ""Пришла координата: $GPRMC,022030.000,A,6007.12562,N,03008.80640,E,0.2,97.2,080422,,,A*5D"""
27550;2022-04-08 ; 05:20:55 ;" ""Пришла координата: $GPRMC,022055.000,A,6007.12562,N,03008.80640,E,0.1,0.0,080422,,,A*61"""
27637;2022-04-08 ; 05:21:20 ;" ""Пришла координата: $GPRMC,022120.000,A,6007.12557,N,03008.80623,E,0.0,0.0,080422,,,A*60"""
27736;2022-04-08 ; 05:21:45 ;" ""Пришла координата: $GPRMC,022145.000,A,6007.12544,N,03008.80633,E,0.0,0.0,080422,,,A*60"""
27812;2022-04-08 ; 05:22:10 ;" ""Пришла координата: $GPRMC,022210.000,A,6007.12544,N,03008.80633,E,0.1,0.0,080422,,,A*62"""
27904;2022-04-08 ; 05:22:35 ;" ""Пришла координата: $GPRMC,022235.000,A,6007.12545,N,03008.80646,E,0.1,0.0,080422,,,A*66"""
27991;2022-04-08 ; 05:23:00 ;" ""Пришла координата: $GPRMC,022300.000,A,6007.12545,N,03008.80646,E,0.1,0.0,080422,,,A*61"""
28079;2022-04-08 ; 05:23:25 ;" ""Пришла координата: $GPRMC,022325.000,A,6007.12549,N,03008.80628,E,0.0,0.0,080422,,,A*63"""
28175;2022-04-08 ; 05:23:50 ;" ""Пришла координата: $GPRMC,022350.000,A,6007.12539,N,03008.80619,E,0.0,0.0,080422,,,A*64"""
28260;2022-04-08 ; 05:24:15 ;" ""Пришла координата: $GPRMC,022415.000,A,6007.12539,N,03008.80619,E,0.1,0.0,080422,,,A*63"""
28346;2022-04-08 ; 05:24:40 ;" ""Пришла координата: $GPRMC,022440.000,A,6007.12529,N,03008.80619,E,0.1,0.0,080422,,,A*62"""
28436;2022-04-08 ; 05:25:05 ;" ""Пришла координата: $GPRMC,022505.000,A,6007.12528,N,03008.80623,E,0.1,0.0,080422,,,A*6A"""
28522;2022-04-08 ; 05:25:30 ;" ""Пришла координата: $GPRMC,022530.000,A,6007.12528,N,03008.80623,E,0.0,0.0,080422,,,A*6D"""
28612;2022-04-08 ; 05:25:55 ;" ""Пришла координата: $GPRMC,022555.000,A,6007.12509,N,03008.80629,E,0.1,0.0,080422,,,A*66"""
28702;2022-04-08 ; 05:26:20 ;" ""Пришла координата: $GPRMC,022620.000,A,6007.12509,N,03008.80629,E,0.0,0.0,080422,,,A*66"""
28791;2022-04-08 ; 05:26:45 ;" ""Пришла координата: $GPRMC,022645.000,A,6007.12501,N,03008.80643,E,0.1,0.0,080422,,,A*60"""
28877;2022-04-08 ; 05:27:10 ;" ""Пришла координата: $GPRMC,022710.000,A,6007.12494,N,03008.80593,E,0.1,0.0,080422,,,A*62"""
28966;2022-04-08 ; 05:27:35 ;" ""Пришла координата: $GPRMC,022735.000,A,6007.12494,N,03008.80593,E,0.0,0.0,080422,,,A*64"""
29058;2022-04-08 ; 05:28:00 ;" ""Пришла координата: $GPRMC,022800.000,A,6007.12467,N,03008.80565,E,0.0,0.0,080422,,,A*68"""
29147;2022-04-08 ; 05:28:25 ;" ""Пришла координата: $GPRMC,022825.000,A,6007.12444,N,03008.80569,E,0.2,0.0,080422,,,A*60"""
29236;2022-04-08 ; 05:28:50 ;" ""Пришла координата: $GPRMC,022850.000,A,6007.12444,N,03008.80569,E,0.0,0.0,080422,,,A*60"""
29326;2022-04-08 ; 05:29:15 ;" ""Пришла координата: $GPRMC,022915.000,A,6007.12423,N,03008.80537,E,0.2,0.0,080422,,,A*68"""
29406;2022-04-08 ; 05:29:40 ;" ""Пришла координата: $GPRMC,022940.000,A,6007.12423,N,03008.80537,E,0.0,0.0,080422,,,A*6A"""
29502;2022-04-08 ; 05:30:05 ;" ""Пришла координата: $GPRMC,023005.000,A,6007.12423,N,03008.80532,E,0.1,0.0,080422,,,A*67"""
29587;2022-04-08 ; 05:30:30 ;" ""Пришла координата: $GPRMC,023030.000,A,6007.12453,N,03008.80527,E,0.0,0.0,080422,,,A*63"""
29677;2022-04-08 ; 05:30:55 ;" ""Пришла координата: $GPRMC,023055.000,A,6007.12453,N,03008.80527,E,0.0,0.0,080422,,,A*60"""
29769;2022-04-08 ; 05:31:20 ;" ""Пришла координата: $GPRMC,023120.000,A,6007.12507,N,03008.80571,E,0.1,0.0,080422,,,A*61"""
29856;2022-04-08 ; 05:31:45 ;" ""Пришла координата: $GPRMC,023145.000,A,6007.12559,N,03008.80584,E,0.0,0.0,080422,,,A*62"""
29947;2022-04-08 ; 05:32:10 ;" ""Пришла координата: $GPRMC,023210.000,A,6007.12559,N,03008.80584,E,0.0,0.0,080422,,,A*61"""
30032;2022-04-08 ; 05:32:35 ;" ""Пришла координата: $GPRMC,023235.000,A,6007.12565,N,03008.80549,E,0.0,0.0,080422,,,A*68"""
30119;2022-04-08 ; 05:33:00 ;" ""Пришла координата: $GPRMC,023300.000,A,6007.12565,N,03008.80549,E,0.0,0.0,080422,,,A*6F"""
30206;2022-04-08 ; 05:33:25 ;" ""Пришла координата: $GPRMC,023325.000,A,6007.12655,N,03008.80589,E,0.1,0.0,080422,,,A*65"""
30300;2022-04-08 ; 05:33:50 ;" ""Пришла координата: $GPRMC,023350.000,A,6007.12681,N,03008.80579,E,0.0,0.0,080422,,,A*60"""
30391;2022-04-08 ; 05:34:15 ;" ""Пришла координата: $GPRMC,023415.000,A,6007.12681,N,03008.80579,E,0.1,0.0,080422,,,A*67"""
30474;2022-04-08 ; 05:34:40 ;" ""Пришла координата: $GPRMC,023440.000,A,6007.12696,N,03008.80629,E,0.0,0.0,080422,,,A*66"""
30568;2022-04-08 ; 05:35:05 ;" ""Пришла координата: $GPRMC,023505.000,A,6007.12721,N,03008.80652,E,0.1,0.0,080422,,,A*66"""
30648;2022-04-08 ; 05:35:30 ;" ""Пришла координата: $GPRMC,023530.000,A,6007.12721,N,03008.80652,E,0.0,0.0,080422,,,A*61"""
30743;2022-04-08 ; 05:35:55 ;" ""Пришла координата: $GPRMC,023555.000,A,6007.12760,N,03008.80704,E,0.0,0.0,080422,,,A*65"""
30831;2022-04-08 ; 05:36:20 ;" ""Пришла координата: $GPRMC,023620.000,A,6007.12760,N,03008.80704,E,0.0,0.0,080422,,,A*64"""
30927;2022-04-08 ; 05:36:45 ;" ""Пришла координата: $GPRMC,023645.000,A,6007.12756,N,03008.80688,E,0.0,0.0,080422,,,A*67"""
31011;2022-04-08 ; 05:37:10 ;" ""Пришла координата: $GPRMC,023710.000,A,6007.12753,N,03008.80640,E,0.1,0.0,080422,,,A*66"""
31093;2022-04-08 ; 05:37:35 ;" ""Пришла координата: $GPRMC,023735.000,A,6007.12753,N,03008.80640,E,0.1,0.0,080422,,,A*61"""
31185;2022-04-08 ; 05:38:00 ;" ""Пришла координата: $GPRMC,023800.000,A,6007.12756,N,03008.80630,E,0.0,0.0,080422,,,A*6B"""
31273;2022-04-08 ; 05:38:25 ;" ""Пришла координата: $GPRMC,023825.000,A,6007.11626,N,03008.84592,E,6.7,100.9,080422,,,A*6F"""
31366;2022-04-08 ; 05:38:50 ;" ""Пришла координата: $GPRMC,023850.000,A,6007.12262,N,03008.88794,E,0.0,0.0,080422,,,A*6B"""
31454;2022-04-08 ; 05:39:15 ;" ""Пришла координата: $GPRMC,023915.000,A,6007.18462,N,03008.95388,E,15.2,57.5,080422,,,A*63"""
31559;2022-04-08 ; 05:39:40 ;" ""Пришла координата: $GPRMC,023940.000,A,6007.25601,N,03009.14182,E,17.8,52.6,080422,,,A*64"""
31655;2022-04-08 ; 05:40:05 ;" ""Пришла координата: $GPRMC,024005.000,A,6007.31152,N,03009.27991,E,3.6,40.9,080422,,,A*52"""
31740;2022-04-08 ; 05:40:30 ;" ""Пришла координата: $GPRMC,024030.000,A,6007.35553,N,03009.39312,E,22.2,52.5,080422,,,A*63"""
31835;2022-04-08 ; 05:40:55 ;" ""Пришла координата: $GPRMC,024055.000,A,6007.43849,N,03009.61170,E,9.5,52.8,080422,,,A*5F"""
31922;2022-04-08 ; 05:41:20 ;" ""Пришла координата: $GPRMC,024120.000,A,6007.44253,N,03009.61964,E,1.1,45.5,080422,,,A*50"""
32015;2022-04-08 ; 05:41:45 ;" ""Пришла координата: $GPRMC,024145.000,A,6007.42190,N,03009.67667,E,0.1,0.0,080422,,,A*66"""
32092;2022-04-08 ; 05:42:10 ;" ""Пришла координата: $GPRMC,024210.000,A,6007.36701,N,03009.76622,E,18.5,142.5,080422,,,A*56"""
32188;2022-04-08 ; 05:42:35 ;" ""Пришла координата: $GPRMC,024235.000,A,6007.27215,N,03009.95666,E,23.2,108.8,080422,,,A*50"""
32273;2022-04-08 ; 05:43:00 ;" ""Пришла координата: $GPRMC,024300.000,A,6007.22913,N,03010.16003,E,0.3,92.1,080422,,,A*52"""
32359;2022-04-08 ; 05:43:25 ;" ""Пришла координата: $GPRMC,024325.000,A,6007.21271,N,03010.24887,E,18.8,112.1,080422,,,A*57"""
32456;2022-04-08 ; 05:43:50 ;" ""Пришла координата: $GPRMC,024350.000,A,6007.16464,N,03010.50281,E,20.8,112.9,080422,,,A*5F"""
32537;2022-04-08 ; 05:44:15 ;" ""Пришла координата: $GPRMC,024415.000,A,6007.13733,N,03010.62422,E,0.1,0.0,080422,,,A*63"""
32627;2022-04-08 ; 05:44:40 ;" ""Пришла координата: $GPRMC,024440.000,A,6007.09712,N,03010.82698,E,23.5,111.0,080422,,,A*52"""
32716;2022-04-08 ; 05:45:05 ;" ""Пришла координата: $GPRMC,024505.000,A,6007.05394,N,03011.14120,E,19.9,98.6,080422,,,A*6D"""
32801;2022-04-08 ; 05:45:30 ;" ""Пришла координата: $GPRMC,024530.000,A,6007.04331,N,03011.22396,E,7.5,79.3,080422,,,A*56"""
32889;2022-04-08 ; 05:45:55 ;" ""Пришла координата: $GPRMC,024555.000,A,6007.03958,N,03011.41677,E,18.3,93.1,080422,,,A*66"""
32978;2022-04-08 ; 05:46:20 ;" ""Пришла координата: $GPRMC,024620.000,A,6007.02973,N,03011.73083,E,3.4,98.7,080422,,,A*53"""
33080;2022-04-08 ; 05:46:45 ;" ""Пришла координата: $GPRMC,024645.000,A,6007.02764,N,03011.86348,E,27.2,92.5,080422,,,A*6E"""
33158;2022-04-08 ; 05:47:10 ;" ""Пришла координата: $GPRMC,024710.000,A,6007.01587,N,03012.34327,E,35.1,92.8,080422,,,A*6D"""
33246;2022-04-08 ; 05:47:35 ;" ""Пришла координата: $GPRMC,024735.000,A,6006.95531,N,03012.81170,E,32.6,110.1,080422,,,A*57"""
33332;2022-04-08 ; 05:48:00 ;" ""Пришла координата: $GPRMC,024800.000,A,6006.87091,N,03013.29087,E,36.2,108.6,080422,,,A*56"""
33423;2022-04-08 ; 05:48:25 ;" ""Пришла координата: $GPRMC,024825.000,A,6006.82783,N,03013.77278,E,38.4,90.6,080422,,,A*61"""
33516;2022-04-08 ; 05:48:50 ;" ""Пришла координата: $GPRMC,024850.000,A,6006.81454,N,03014.30365,E,31.6,93.9,080422,,,A*67"""
33604;2022-04-08 ; 05:49:15 ;" ""Пришла координата: $GPRMC,024915.000,A,6006.73213,N,03014.47389,E,20.1,157.1,080422,,,A*5B"""
33686;2022-04-08 ; 05:49:40 ;" ""Пришла координата: $GPRMC,024940.000,A,6006.54521,N,03014.64367,E,30.5,155.6,080422,,,A*59"""
33780;2022-04-08 ; 05:50:05 ;" ""Пришла координата: $GPRMC,025005.000,A,6006.44123,N,03014.73864,E,4.8,149.8,080422,,,A*60"""
33866;2022-04-08 ; 05:50:30 ;" ""Пришла координата: $GPRMC,025030.000,A,6006.43524,N,03014.74221,E,0.0,0.0,080422,,,A*66"""
33958;2022-04-08 ; 05:50:55 ;" ""Пришла координата: $GPRMC,025055.000,A,6006.34012,N,03014.82372,E,22.8,156.3,080422,,,A*52"""
34049;2022-04-08 ; 05:51:20 ;" ""Пришла координата: $GPRMC,025120.000,A,6006.23507,N,03014.90014,E,3.6,140.1,080422,,,A*6E"""
34136;2022-04-08 ; 05:51:45 ;" ""Пришла координата: $GPRMC,025145.000,A,6006.10394,N,03015.00634,E,34.1,159.3,080422,,,A*54"""
34223;2022-04-08 ; 05:52:10 ;" ""Пришла координата: $GPRMC,025210.000,A,6005.85658,N,03015.19414,E,37.6,159.2,080422,,,A*50"""
34307;2022-04-08 ; 05:52:35 ;" ""Пришла координата: $GPRMC,025235.000,A,6005.62498,N,03015.37092,E,33.6,159.3,080422,,,A*53"""
34400;2022-04-08 ; 05:53:00 ;" ""Пришла координата: $GPRMC,025300.000,A,6005.42564,N,03015.51827,E,28.3,160.3,080422,,,A*57"""
34485;2022-04-08 ; 05:53:25 ;" ""Пришла координата: $GPRMC,025325.000,A,6005.26619,N,03015.63358,E,11.0,160.1,080422,,,A*52"""
34577;2022-04-08 ; 05:53:50 ;" ""Пришла координата: $GPRMC,025350.000,A,6005.21305,N,03015.66946,E,0.2,0.0,080422,,,A*6B"""
34666;2022-04-08 ; 05:54:15 ;" ""Пришла координата: $GPRMC,025415.000,A,6005.10015,N,03015.76023,E,31.3,159.8,080422,,,A*50"""
34749;2022-04-08 ; 05:54:40 ;" ""Пришла координата: $GPRMC,025440.000,A,6004.99108,N,03015.82312,E,0.1,0.0,080422,,,A*62"""
34859;2022-04-08 ; 05:55:05 ;" ""Пришла координата: $GPRMC,025505.000,A,6004.89819,N,03015.81327,E,27.6,185.3,080422,,,A*52"""
34937;2022-04-08 ; 05:55:30 ;" ""Пришла координата: $GPRMC,025530.000,A,6004.75221,N,03015.95352,E,9.7,133.3,080422,,,A*61"""
35035;2022-04-08 ; 05:55:55 ;" ""Пришла координата: $GPRMC,025555.000,A,6004.73037,N,03016.00279,E,15.8,129.4,080422,,,A*58"""
35120;2022-04-08 ; 05:56:20 ;" ""Пришла координата: $GPRMC,025620.000,A,6004.64048,N,03016.24431,E,23.1,126.2,080422,,,A*5E"""
35228;2022-04-08 ; 05:56:45 ;" ""Пришла координата: $GPRMC,025645.000,A,6004.54570,N,03016.49320,E,17.9,135.9,080422,,,A*5A"""
35324;2022-04-08 ; 05:57:10 ;" ""Пришла координата: $GPRMC,025710.000,A,6004.53100,N,03016.53378,E,12.7,121.5,080422,,,A*5B"""
35414;2022-04-08 ; 05:57:35 ;" ""Пришла координата: $GPRMC,025735.000,A,6004.41885,N,03016.83749,E,35.1,126.8,080422,,,A*59"""
35505;2022-04-08 ; 05:58:00 ;" ""Пришла координата: $GPRMC,025800.000,A,6004.27067,N,03017.23150,E,33.8,127.0,080422,,,A*57"""
35591;2022-04-08 ; 05:58:25 ;" ""Пришла координата: $GPRMC,025825.000,A,6004.13443,N,03017.59611,E,29.7,127.0,080422,,,A*5E"""
35687;2022-04-08 ; 05:58:50 ;" ""Пришла координата: $GPRMC,025850.000,A,6004.05724,N,03017.79249,E,0.8,117.4,080422,,,A*61"""
35773;2022-04-08 ; 05:59:15 ;" ""Пришла координата: $GPRMC,025915.000,A,6004.02450,N,03017.88249,E,20.1,132.3,080422,,,A*53"""
35854;2022-04-08 ; 05:59:40 ;" ""Пришла координата: $GPRMC,025940.000,A,6003.83501,N,03018.12259,E,34.2,159.6,080422,,,A*5B"""
35944;2022-04-08 ; 06:00:05 ;" ""Пришла координата: $GPRMC,030005.000,A,6003.75315,N,03018.18143,E,0.0,0.0,080422,,,A*61"""
36029;2022-04-08 ; 06:00:30 ;" ""Пришла координата: $GPRMC,030030.000,A,6003.73533,N,03018.19572,E,16.9,158.7,080422,,,A*51"""
36118;2022-04-08 ; 06:00:55 ;" ""Пришла координата: $GPRMC,030055.000,A,6003.55942,N,03018.32818,E,31.0,159.8,080422,,,A*56"""
36212;2022-04-08 ; 06:01:20 ;" ""Пришла координата: $GPRMC,030120.000,A,6003.34692,N,03018.47996,E,33.8,161.8,080422,,,A*54"""
36305;2022-04-08 ; 06:01:45 ;" ""Пришла координата: $GPRMC,030145.000,A,6003.12502,N,03018.61078,E,34.4,163.9,080422,,,A*5C"""
36382;2022-04-08 ; 06:02:10 ;" ""Пришла координата: $GPRMC,030210.000,A,6002.89360,N,03018.75071,E,35.1,163.5,080422,,,A*5A"""
36470;2022-04-08 ; 06:02:35 ;" ""Пришла координата: $GPRMC,030235.000,A,6002.69956,N,03018.86393,E,23.0,163.7,080422,,,A*5B"""
36562;2022-04-08 ; 06:03:00 ;" ""Пришла координата: $GPRMC,030300.000,A,6002.64121,N,03018.89847,E,0.0,0.0,080422,,,A*66"""
36642;2022-04-08 ; 06:03:25 ;" ""Пришла координата: $GPRMC,030325.000,A,6002.62258,N,03018.94954,E,9.3,74.8,080422,,,A*54"""
36735;2022-04-08 ; 06:03:50 ;" ""Пришла координата: $GPRMC,030350.000,A,6002.65406,N,03019.15449,E,11.9,73.0,080422,,,A*69"""
36824;2022-04-08 ; 06:04:15 ;" ""Пришла координата: $GPRMC,030415.000,A,6002.66765,N,03019.25706,E,5.8,75.0,080422,,,A*53"""
36905;2022-04-08 ; 06:04:40 ;" ""Пришла координата: $GPRMC,030440.000,A,6002.67940,N,03019.40369,E,29.9,97.2,080422,,,A*64"""
36997;2022-04-08 ; 06:05:05 ;" ""Пришла координата: $GPRMC,030505.000,A,6002.61724,N,03019.66717,E,9.3,183.9,080422,,,A*60"""
37083;2022-04-08 ; 06:05:30 ;" ""Пришла координата: $GPRMC,030530.000,A,6002.47717,N,03019.56741,E,29.6,200.5,080422,,,A*51"""
37191;2022-04-08 ; 06:05:55 ;" ""Пришла координата: $GPRMC,030555.000,A,6002.27591,N,03019.41760,E,30.4,198.9,080422,,,A*59"""
37288;2022-04-08 ; 06:06:20 ;" ""Пришла координата: $GPRMC,030620.000,A,6002.22806,N,03019.38085,E,0.1,0.0,080422,,,A*63"""
37382;2022-04-08 ; 06:06:45 ;" ""Пришла координата: $GPRMC,030645.000,A,6002.20442,N,03019.35979,E,13.9,209.7,080422,,,A*5F"""
37487;2022-04-08 ; 06:07:10 ;" ""Пришла координата: $GPRMC,030710.000,A,6002.18944,N,03019.34480,E,0.0,0.0,080422,,,A*63"""
37579;2022-04-08 ; 06:07:35 ;" ""Пришла координата: $GPRMC,030735.000,A,6002.18976,N,03019.34461,E,0.1,0.0,080422,,,A*6B"""
37678;2022-04-08 ; 06:08:00 ;" ""Пришла координата: $GPRMC,030800.000,A,6002.18976,N,03019.34461,E,0.0,0.0,080422,,,A*63"""
37767;2022-04-08 ; 06:08:25 ;" ""Пришла координата: $GPRMC,030825.000,A,6002.15428,N,03019.31525,E,16.2,200.9,080422,,,A*55"""
37858;2022-04-08 ; 06:08:50 ;" ""Пришла координата: $GPRMC,030850.000,A,6002.09466,N,03019.23265,E,14.5,354.1,080422,,,A*5D"""
37951;2022-04-08 ; 06:09:15 ;" ""Пришла координата: $GPRMC,030915.000,A,6002.12553,N,03019.22267,E,0.1,0.0,080422,,,A*61"""
38034;2022-04-08 ; 06:09:40 ;" ""Пришла координата: $GPRMC,030940.000,A,6002.12553,N,03019.22267,E,0.0,0.0,080422,,,A*60"""
38124;2022-04-08 ; 06:10:05 ;" ""Пришла координата: $GPRMC,031005.000,A,6002.12560,N,03019.22295,E,0.0,0.0,080422,,,A*64"""
38207;2022-04-08 ; 06:10:30 ;" ""Пришла координата: $GPRMC,031030.000,A,6002.12590,N,03019.22304,E,0.0,0.0,080422,,,A*64"""
38300;2022-04-08 ; 06:10:55 ;" ""Пришла координата: $GPRMC,031055.000,A,6002.12590,N,03019.22304,E,0.1,0.0,080422,,,A*66"""
38391;2022-04-08 ; 06:11:20 ;" ""Пришла координата: $GPRMC,031120.000,A,6002.12616,N,03019.22282,E,0.1,0.0,080422,,,A*67"""
38484;2022-04-08 ; 06:11:45 ;" ""Пришла координата: $GPRMC,031145.000,A,6002.12616,N,03019.22300,E,0.0,0.0,080422,,,A*6E"""
38567;2022-04-08 ; 06:12:10 ;" ""Пришла координата: $GPRMC,031210.000,A,6002.12616,N,03019.22300,E,0.1,0.0,080422,,,A*6C"""
38652;2022-04-08 ; 06:12:35 ;" ""Пришла координата: $GPRMC,031235.000,A,6002.12630,N,03019.22337,E,0.1,0.0,080422,,,A*6B"""
38739;2022-04-08 ; 06:13:00 ;" ""Пришла координата: $GPRMC,031300.000,A,6002.12630,N,03019.22337,E,0.0,0.0,080422,,,A*6D"""
38831;2022-04-08 ; 06:13:25 ;" ""Пришла координата: $GPRMC,031325.000,A,6002.12642,N,03019.22285,E,0.0,0.0,080422,,,A*67"""
38925;2022-04-08 ; 06:13:50 ;" ""Пришла координата: $GPRMC,031350.000,A,6002.12680,N,03019.22283,E,0.1,0.0,080422,,,A*6C"""
39010;2022-04-08 ; 06:14:15 ;" ""Пришла координата: $GPRMC,031415.000,A,6002.12680,N,03019.22283,E,0.1,0.0,080422,,,A*6A"""
39096;2022-04-08 ; 06:14:40 ;" ""Пришла координата: $GPRMC,031440.000,A,6002.12666,N,03019.22316,E,0.0,0.0,080422,,,A*6E"""
39188;2022-04-08 ; 06:15:05 ;" ""Пришла координата: $GPRMC,031505.000,A,6002.12691,N,03019.22351,E,0.1,0.0,080422,,,A*64"""
39272;2022-04-08 ; 06:15:30 ;" ""Пришла координата: $GPRMC,031530.000,A,6002.12691,N,03019.22351,E,0.0,0.0,080422,,,A*63"""
39364;2022-04-08 ; 06:15:55 ;" ""Пришла координата: $GPRMC,031555.000,A,6002.12696,N,03019.22364,E,0.1,0.0,080422,,,A*60"""
39452;2022-04-08 ; 06:16:20 ;" ""Пришла координата: $GPRMC,031620.000,A,6002.15073,N,03019.20819,E,19.9,349.8,080422,,,A*5E"""
39544;2022-04-08 ; 06:16:45 ;" ""Пришла координата: $GPRMC,031645.000,A,6002.21965,N,03019.17594,E,0.2,0.0,080422,,,A*6D"""
39630;2022-04-08 ; 06:17:10 ;" ""Пришла координата: $GPRMC,031710.000,A,6002.22010,N,03019.17520,E,3.4,334.8,080422,,,A*62"""
39716;2022-04-08 ; 06:17:35 ;" ""Пришла координата: $GPRMC,031735.000,A,6002.37968,N,03019.07427,E,31.2,345.0,080422,,,A*59"""
39806;2022-04-08 ; 06:18:00 ;" ""Пришла координата: $GPRMC,031800.000,A,6002.57093,N,03018.96407,E,25.8,343.4,080422,,,A*5D"""
39890;2022-04-08 ; 06:18:25 ;" ""Пришла координата: $GPRMC,031825.000,A,6002.60710,N,03018.94106,E,0.0,0.0,080422,,,A*6B"""
39984;2022-04-08 ; 06:18:50 ;" ""Пришла координата: $GPRMC,031850.000,A,6002.66107,N,03018.91018,E,27.4,343.7,080422,,,A*56"""
40069;2022-04-08 ; 06:19:15 ;" ""Пришла координата: $GPRMC,031915.000,A,6002.88945,N,03018.77715,E,34.1,343.4,080422,,,A*5E"""
40152;2022-04-08 ; 06:19:40 ;" ""Пришла координата: $GPRMC,031940.000,A,6003.02336,N,03018.69552,E,13.8,344.7,080422,,,A*55"""
40244;2022-04-08 ; 06:20:05 ;" ""Пришла координата: $GPRMC,032005.000,A,6003.19246,N,03018.59623,E,30.5,343.7,080422,,,A*5F"""
40330;2022-04-08 ; 06:20:30 ;" ""Пришла координата: $GPRMC,032030.000,A,6003.40384,N,03018.47107,E,33.6,340.8,080422,,,A*58"""
40423;2022-04-08 ; 06:20:55 ;" ""Пришла координата: $GPRMC,032055.000,A,6003.54637,N,03018.37334,E,0.2,0.0,080422,,,A*6D"""
40513;2022-04-08 ; 06:21:20 ;" ""Пришла координата: $GPRMC,032120.000,A,6003.59215,N,03018.32878,E,22.7,332.4,080422,,,A*52"""
40622;2022-04-08 ; 06:21:45 ;" ""Пришла координата: $GPRMC,032145.000,A,6003.73804,N,03018.22665,E,0.1,0.0,080422,,,A*60"""
40714;2022-04-08 ; 06:22:10 ;" ""Пришла координата: $GPRMC,032210.000,A,6003.73804,N,03018.22665,E,0.1,0.0,080422,,,A*63"""
40813;2022-04-08 ; 06:22:35 ;" ""Пришла координата: $GPRMC,032235.000,A,6003.77789,N,03018.20147,E,3.4,337.5,080422,,,A*6B"""
40928;2022-04-08 ; 06:23:00 ;" ""Пришла координата: $GPRMC,032300.000,A,6003.84525,N,03018.14109,E,28.7,339.0,080422,,,A*58"""
41022;2022-04-08 ; 06:23:25 ;" ""Пришла координата: $GPRMC,032325.000,A,6004.03202,N,03017.88952,E,30.9,316.7,080422,,,A*54"""
41129;2022-04-08 ; 06:23:50 ;" ""Пришла координата: $GPRMC,032350.000,A,6004.16601,N,03017.52914,E,32.4,308.8,080422,,,A*5F"""
41225;2022-04-08 ; 06:24:15 ;" ""Пришла координата: $GPRMC,032415.000,A,6004.31371,N,03017.13607,E,35.5,306.9,080422,,,A*5F"""
41305;2022-04-08 ; 06:24:40 ;" ""Пришла координата: $GPRMC,032440.000,A,6004.46595,N,03016.73041,E,36.2,307.0,080422,,,A*5C"""
41390;2022-04-08 ; 06:25:05 ;" ""Пришла координата: $GPRMC,032505.000,A,6004.60812,N,03016.34823,E,37.2,306.4,080422,,,A*51"""
41476;2022-04-08 ; 06:25:30 ;" ""Пришла координата: $GPRMC,032530.000,A,6004.76913,N,03015.94074,E,34.8,314.8,080422,,,A*55"""
41581;2022-04-08 ; 06:25:55 ;" ""Пришла координата: $GPRMC,032555.000,A,6004.96655,N,03015.84336,E,29.2,2.1,080422,,,A*5A"""
41680;2022-04-08 ; 06:26:20 ;" ""Пришла координата: $GPRMC,032620.000,A,6005.02814,N,03015.82597,E,2.4,345.6,080422,,,A*6F"""
41784;2022-04-08 ; 06:26:45 ;" ""Пришла координата: $GPRMC,032645.000,A,6005.19389,N,03015.70513,E,33.0,340.0,080422,,,A*5D"""
41881;2022-04-08 ; 06:27:10 ;" ""Пришла координата: $GPRMC,032710.000,A,6005.41177,N,03015.54211,E,31.9,339.7,080422,,,A*53"""
41973;2022-04-08 ; 06:27:35 ;" ""Пришла координата: $GPRMC,032735.000,A,6005.60526,N,03015.40230,E,33.9,340.7,080422,,,A*5D"""
42077;2022-04-08 ; 06:28:00 ;" ""Пришла координата: $GPRMC,032800.000,A,6005.85215,N,03015.21646,E,40.0,339.2,080422,,,A*5C"""
42177;2022-04-08 ; 06:28:25 ;" ""Пришла координата: $GPRMC,032825.000,A,6006.10200,N,03015.02542,E,37.2,338.9,080422,,,A*5E"""
42277;2022-04-08 ; 06:28:50 ;" ""Пришла координата: $GPRMC,032850.000,A,6006.29734,N,03014.87923,E,17.3,344.0,080422,,,A*52"""
42377;2022-04-08 ; 06:29:15 ;" ""Пришла координата: $GPRMC,032915.000,A,6006.38382,N,03014.79999,E,30.9,335.8,080422,,,A*5A"""
42473;2022-04-08 ; 06:29:40 ;" ""Пришла координата: $GPRMC,032940.000,A,6006.60777,N,03014.59677,E,37.4,336.3,080422,,,A*56"""
42578;2022-04-08 ; 06:30:05 ;" ""Пришла координата: $GPRMC,033005.000,A,6006.79946,N,03014.42545,E,9.9,339.0,080422,,,A*6F"""
42671;2022-04-08 ; 06:30:30 ;" ""Пришла координата: $GPRMC,033030.000,A,6006.80388,N,03014.42101,E,0.1,0.0,080422,,,A*6B"""
42774;2022-04-08 ; 06:30:55 ;" ""Пришла координата: $GPRMC,033055.000,A,6006.81532,N,03014.38040,E,14.3,267.9,080422,,,A*5A"""
42875;2022-04-08 ; 06:31:20 ;" ""Пришла координата: $GPRMC,033120.000,A,6006.82323,N,03014.01868,E,32.3,273.9,080422,,,A*55"""
42979;2022-04-08 ; 06:31:45 ;" ""Пришла координата: $GPRMC,033145.000,A,6006.83997,N,03013.55545,E,34.6,281.6,080422,,,A*57"""
43075;2022-04-08 ; 06:32:10 ;" ""Пришла координата: $GPRMC,033210.000,A,6006.91196,N,03013.06170,E,37.1,289.2,080422,,,A*52"""
